{
"type": "FeatureCollection",
"crs": { "type": "name", "properties": { "name": "urn:ogc:def:crs:OGC:1.3:CRS84" } },
"features": [
{ "type": "Feature", "properties": { "labelX": 30, "name": "Buckhurst Hill", "tfl_intid": 531, "lines": [ { "name": "Central" } ], "tfl_statid": 37, "night": 1, "id": "940GZZLUBKH", "labelY": null, "altid": null, "altid2": null }, "geometry": { "type": "Point", "coordinates": [ 0.0467968, 51.6259458 ] } },
{ "type": "Feature", "properties": { "labelX": 30, "name": "Bethnal Green", "tfl_intid": 520, "lines": [ { "name": "Central" } ], "tfl_statid": 24, "night": 1, "id": "940GZZLUBLG", "labelY": null, "altid": null, "altid2": null }, "geometry": { "type": "Point", "coordinates": [ -0.055488500000017, 51.5274732 ] } },
{ "type": "Feature", "properties": { "labelX": 25, "name": "Bond Street", "tfl_intid": 524, "lines": [ { "name": "Central" }, { "name": "Jubilee" }, { "name": "Crossrail", "opened": 2018 } ], "tfl_statid": 28, "night": 1, "id": "940GZZLUBND", "labelY": 20, "altid": null, "altid2": null }, "geometry": { "type": "Point", "coordinates": [ -0.1489861, 51.514325400000011 ] } },
{ "type": "Feature", "properties": { "labelX": 30, "name": "Chancery Lane", "tfl_intid": 541, "lines": [ { "name": "Central" } ], "tfl_statid": 48, "night": 1, "id": "940GZZLUCHL", "labelY": null, "altid": null, "altid2": null }, "geometry": { "type": "Point", "coordinates": [ -0.112121399999989, 51.5181116 ] } },
{ "type": "Feature", "properties": { "labelX": 30, "name": "Debden", "tfl_intid": 557, "lines": [ { "name": "Central" } ], "tfl_statid": 68, "night": null, "id": "940GZZLUDBN", "labelY": null, "altid": null, "altid2": null }, "geometry": { "type": "Point", "coordinates": [ 0.083573299999985, 51.645292900000015 ] } },
{ "type": "Feature", "properties": { "labelX": 30, "name": "East Acton", "tfl_intid": 563, "lines": [ { "name": "Central" } ], "tfl_statid": 75, "night": 1, "id": "940GZZLUEAN", "labelY": null, "altid": null, "altid2": null }, "geometry": { "type": "Point", "coordinates": [ -0.2475722, 51.516869199999981 ] } },
{ "type": "Feature", "properties": { "labelX": -1, "name": "Ealing Broadway", "tfl_intid": 560, "lines": [ { "name": "Central" }, { "name": "District" }, { "name": "Crossrail", "opened": 2018 } ], "tfl_statid": 72, "night": 1, "id": "940GZZLUEBY", "labelY": -35, "altid": null, "altid2": null }, "geometry": { "type": "Point", "coordinates": [ -0.301543538506429, 51.514786620149344 ] } },
{ "type": "Feature", "properties": { "labelX": 30, "name": "Epping", "tfl_intid": 572, "lines": [ { "name": "Central" } ], "tfl_statid": 88, "night": null, "id": "940GZZLUEPG", "labelY": null, "altid": null, "altid2": null }, "geometry": { "type": "Point", "coordinates": [ 0.114527900000019, 51.6941769 ] } },
{ "type": "Feature", "properties": { "labelX": 30, "name": "Holborn", "tfl_intid": 607, "lines": [ { "name": "Central" }, { "name": "Piccadilly" } ], "tfl_statid": 127, "night": 1, "id": "940GZZLUHBN", "labelY": null, "altid": null, "altid2": null }, "geometry": { "type": "Point", "coordinates": [ -0.120177129592412, 51.517615038307298 ] } },
{ "type": "Feature", "properties": { "labelX": 25, "name": "Holland Park", "tfl_intid": 608, "lines": [ { "name": "Central" } ], "tfl_statid": 128, "night": 1, "id": "940GZZLUHPK", "labelY": 20, "altid": null, "altid2": null }, "geometry": { "type": "Point", "coordinates": [ -0.205642100000012, 51.5072766 ] } },
{ "type": "Feature", "properties": { "labelX": -30, "name": "Loughton", "tfl_intid": 636, "lines": [ { "name": "Central" } ], "tfl_statid": 159, "night": 1, "id": "940GZZLULGN", "labelY": null, "altid": null, "altid2": null }, "geometry": { "type": "Point", "coordinates": [ 0.0552549, 51.641360600000013 ] } },
{ "type": "Feature", "properties": { "labelX": 25, "name": "Lancaster Gate", "tfl_intid": 629, "lines": [ { "name": "Central" } ], "tfl_statid": 150, "night": 1, "id": "940GZZLULGT", "labelY": 20, "altid": null, "altid2": null }, "geometry": { "type": "Point", "coordinates": [ -0.175144900000013, 51.511871299999989 ] } },
{ "type": "Feature", "properties": { "labelX": 30, "name": "Liverpool Street", "tfl_intid": 634, "lines": [ { "name": "Central" }, { "name": "Hammersmith & City" }, { "name": "Circle" }, { "name": "Metropolitan" }, { "name": "London Overground", "opened": 2015 }, { "name": "TfL Rail", "closed": 2017, "opened": 2015 }, { "name": "Crossrail", "opened": 2018 } ], "tfl_statid": 157, "night": 1, "id": "940GZZLULVT", "labelY": null, "altid": "910GLIVST", "altid2": null }, "geometry": { "type": "Point", "coordinates": [ -0.083213025282048, 51.517300035168248 ] } },
{ "type": "Feature", "properties": { "labelX": 30, "name": "Leyton", "tfl_intid": 632, "lines": [ { "name": "Central" } ], "tfl_statid": 154, "night": 1, "id": "940GZZLULYN", "labelY": null, "altid": null, "altid2": null }, "geometry": { "type": "Point", "coordinates": [ -0.0054072, 51.556631300000014 ] } },
{ "type": "Feature", "properties": { "labelX": 30, "name": "Leytonstone", "tfl_intid": 633, "lines": [ { "name": "Central" } ], "tfl_statid": 155, "night": 1, "id": "940GZZLULYS", "labelY": null, "altid": null, "altid2": null }, "geometry": { "type": "Point", "coordinates": [ 0.0084026, 51.5685814 ] } },
{ "type": "Feature", "properties": { "labelX": 25, "name": "Marble Arch", "tfl_intid": 640, "lines": [ { "name": "Central" } ], "tfl_statid": 163, "night": 1, "id": "940GZZLUMBA", "labelY": 20, "altid": null, "altid2": null }, "geometry": { "type": "Point", "coordinates": [ -0.157835599999981, 51.513539800000011 ] } },
{ "type": "Feature", "properties": { "labelX": 30, "name": "Mile End", "tfl_intid": 642, "lines": [ { "name": "Central" }, { "name": "District" }, { "name": "Hammersmith & City" } ], "tfl_statid": 165, "night": 1, "id": "940GZZLUMED", "labelY": null, "altid": null, "altid2": null }, "geometry": { "type": "Point", "coordinates": [ -0.033444900000021, 51.525356300000041 ] } },
{ "type": "Feature", "properties": { "labelX": 30, "name": "North Acton", "tfl_intid": 653, "lines": [ { "name": "Central" } ], "tfl_statid": 177, "night": 1, "id": "940GZZLUNAN", "labelY": null, "altid": null, "altid2": null }, "geometry": { "type": "Point", "coordinates": [ -0.2597136263647, 51.523604745436081 ] } },
{ "type": "Feature", "properties": { "labelX": 25, "name": "Notting Hill Gate", "tfl_intid": 663, "lines": [ { "name": "Central" }, { "name": "District" }, { "name": "Circle" } ], "tfl_statid": 187, "night": 1, "id": "940GZZLUNHG", "labelY": 20, "altid": null, "altid2": null }, "geometry": { "type": "Point", "coordinates": [ -0.19609468475556, 51.5091997785415 ] } },
{ "type": "Feature", "properties": { "labelX": 25, "name": "Queensway", "tfl_intid": 681, "lines": [ { "name": "Central" } ], "tfl_statid": 208, "night": 1, "id": "940GZZLUQWY", "labelY": 20, "altid": null, "altid2": null }, "geometry": { "type": "Point", "coordinates": [ -0.1872298, 51.510500399999984 ] } },
{ "type": "Feature", "properties": { "labelX": 25, "name": "Shepherd's Bush", "tfl_intid": 700, "lines": [ { "name": "Central" }, { "name": "London Overground", "opened": 2007 } ], "tfl_statid": 226, "night": 1, "id": "940GZZLUSBC", "labelY": 20, "altid": "910GSHPDSB", "altid2": null }, "geometry": { "type": "Point", "coordinates": [ -0.217128255502097, 51.504597558060567 ] } },
{ "type": "Feature", "properties": { "labelX": 30, "name": "Snaresbrook", "tfl_intid": 703, "lines": [ { "name": "Central" } ], "tfl_statid": 230, "night": 1, "id": "940GZZLUSNB", "labelY": null, "altid": null, "altid2": null }, "geometry": { "type": "Point", "coordinates": [ 0.0215136, 51.58073 ] } },
{ "type": "Feature", "properties": { "labelX": 30, "name": "St. Paul's", "tfl_intid": 697, "lines": [ { "name": "Central" } ], "tfl_statid": 244, "night": 1, "id": "940GZZLUSPU", "labelY": null, "altid": null, "altid2": null }, "geometry": { "type": "Point", "coordinates": [ -0.097481976500947, 51.514924832234954 ] } },
{ "type": "Feature", "properties": { "labelX": 30, "name": "Stratford", "tfl_intid": 719, "lines": [ { "name": "Central" }, { "name": "Jubilee" }, { "name": "DLR" }, { "name": "London Overground", "opened": 2007 }, { "name": "TfL Rail", "closed": 2017, "opened": 2015 }, { "name": "Crossrail", "opened": 2018 } ], "tfl_statid": 250, "night": 1, "id": "940GZZLUSTD", "labelY": null, "altid": "910GSTFD", "altid2": "940GZZDLSTD" }, "geometry": { "type": "Point", "coordinates": [ -0.003884495641132, 51.541494041083347 ] } },
{ "type": "Feature", "properties": { "labelX": 30, "name": "South Woodford", "tfl_intid": 712, "lines": [ { "name": "Central" } ], "tfl_statid": 238, "night": 1, "id": "940GZZLUSWF", "labelY": null, "altid": null, "altid2": null }, "geometry": { "type": "Point", "coordinates": [ 0.0273908, 51.591931599999988 ] } },
{ "type": "Feature", "properties": { "labelX": 30, "name": "Tottenham Court Road", "tfl_intid": 728, "lines": [ { "name": "Central" }, { "name": "Northern" }, { "name": "Crossrail", "opened": 2018 } ], "tfl_statid": 259, "night": 1, "id": "940GZZLUTCR", "labelY": null, "altid": null, "altid2": null }, "geometry": { "type": "Point", "coordinates": [ -0.130523714868367, 51.51646747042173 ] } },
{ "type": "Feature", "properties": { "labelX": 30, "name": "Theydon Bois", "tfl_intid": 725, "lines": [ { "name": "Central" } ], "tfl_statid": 256, "night": null, "id": "940GZZLUTHB", "labelY": null, "altid": null, "altid2": null }, "geometry": { "type": "Point", "coordinates": [ 0.1032103, 51.6717381 ] } },
{ "type": "Feature", "properties": { "labelX": -30, "name": "White City", "tfl_intid": 764, "lines": [ { "name": "Central" } ], "tfl_statid": 295, "night": 1, "id": "940GZZLUWCY", "labelY": null, "altid": null, "altid2": null }, "geometry": { "type": "Point", "coordinates": [ -0.2243858, 51.5120719 ] } },
{ "type": "Feature", "properties": { "labelX": 30, "name": "Woodford", "tfl_intid": 769, "lines": [ { "name": "Central" } ], "tfl_statid": 302, "night": 1, "id": "940GZZLUWOF", "labelY": null, "altid": null, "altid2": null }, "geometry": { "type": "Point", "coordinates": [ 0.0338595, 51.6066548 ] } },
{ "type": "Feature", "properties": { "labelX": 25, "name": "West Acton", "tfl_intid": 753, "lines": [ { "name": "Central" } ], "tfl_statid": 283, "night": 1, "id": "940GZZLUWTA", "labelY": -20, "altid": null, "altid2": null }, "geometry": { "type": "Point", "coordinates": [ -0.2806051, 51.518196400000022 ] } },
{ "type": "Feature", "properties": { "labelX": 30, "name": "Bank", "tfl_intid": 513, "lines": [ { "name": "Central" }, { "name": "Northern" }, { "name": "DLR" }, { "name": "Waterloo & City" } ], "tfl_statid": 13, "night": 1, "id": "940GZZLUBNK", "labelY": null, "altid": "940GZZDLBNK", "altid2": null }, "geometry": { "type": "Point", "coordinates": [ -0.088989636260847, 51.513449586813728 ] } },
{ "type": "Feature", "properties": { "labelX": 25, "name": "Oxford Circus", "tfl_intid": 669, "lines": [ { "name": "Bakerloo" }, { "name": "Central" }, { "name": "Victoria" } ], "tfl_statid": 192, "night": 1, "id": "940GZZLUOXC", "labelY": 20, "altid": null, "altid2": null }, "geometry": { "type": "Point", "coordinates": [ -0.142080221996661, 51.515307860264464 ] } }
]
}
